[
  {
    "id": 393,
    "restaurant_name": "Bagatelle St. Tropez",
    "city": "Ramatuelle",
    "slug": "bagatelle-st-tropez",
    "status": "updated",
    "current_lat": "43.2348610",
    "current_lng": "6.6621290",
    "proposed_lat": 43.234861,
    "proposed_lng": 6.662129,
    "query": "Bagatelle St. Tropez, Pampelonne Beach, Ramatuelle, Provence-Alpes-Cote d'Azur, France",
    "formatted_address": "Les Tamaris, Chem. de Matarane, 83350 Ramatuelle, France",
    "location_type": "ROOFTOP",
    "place_id": "ChIJQd0I6WrHzhIRYnoB6qp4Tzo"
  },
  {
    "id": 394,
    "restaurant_name": "Byblos Beach",
    "city": "Ramatuelle",
    "slug": "byblos-beach",
    "status": "updated",
    "current_lat": "43.2249040",
    "current_lng": "6.6618990",
    "proposed_lat": 43.224904,
    "proposed_lng": 6.661899,
    "query": "Byblos Beach, Hotel Byblos Saint-Tropez, Pampelonne Beach, Ramatuelle, Provence-Alpes-Cote d'Azur, France",
    "formatted_address": "42 Bd Patch, 83350 Ramatuelle, France",
    "location_type": "ROOFTOP",
    "place_id": "ChIJl3oZ_MHHzhIRPtVKcIKDZYA"
  },
  {
    "id": 380,
    "restaurant_name": "Gigi Ramatuelle",
    "city": "Ramatuelle",
    "slug": "gigi-ramatuelle",
    "status": "updated",
    "current_lat": "43.2225180",
    "current_lng": "6.6610520",
    "proposed_lat": 43.222518,
    "proposed_lng": 6.661052,
    "query": "Gigi Ramatuelle, Pampelonne Beach, Ramatuelle, Provence-Alpes-Cote d'Azur, France",
    "formatted_address": "1050 Chem. des Barraques, 83350 Ramatuelle, France",
    "location_type": "ROOFTOP",
    "place_id": "ChIJe_-PZijHzhIR2Op9ShPeO68"
  },
  {
    "id": 390,
    "restaurant_name": "Jardin Tropezina",
    "city": "Ramatuelle",
    "slug": "jardin-tropezina",
    "status": "updated",
    "current_lat": "43.2451700",
    "current_lng": "6.6670760",
    "proposed_lat": 43.24517,
    "proposed_lng": 6.667076,
    "query": "Jardin Tropezina, Airelles Chateau de la Messardiere, Pampelonne Beach, Ramatuelle, Provence-Alpes-Cote d'Azur, France",
    "formatted_address": "325 Allee De La Mer, 83350 Ramatuelle, France",
    "location_type": "ROOFTOP",
    "place_id": "ChIJ67-ZXizBzhIR3DFnJ-4QOwQ"
  },
  {
    "id": 378,
    "restaurant_name": "Kinugawa Ramatuelle",
    "city": "Ramatuelle",
    "slug": "kinugawa-ramatuelle",
    "status": "updated",
    "current_lat": "43.2473650",
    "current_lng": "6.6465350",
    "proposed_lat": 43.247365,
    "proposed_lng": 6.646535,
    "query": "Kinugawa Ramatuelle, Route des Plages, Ramatuelle, Provence-Alpes-Cote d'Azur, France",
    "formatted_address": "2452 route des plages road 93, 83350 Ramatuelle, France",
    "location_type": "ROOFTOP",
    "place_id": "ChIJPz7jVgjHzhIRPGKmELM0eXw"
  },
  {
    "id": 391,
    "restaurant_name": "La Reserve a la Plage",
    "city": "Ramatuelle",
    "slug": "la-reserve-a-la-plage",
    "status": "updated",
    "current_lat": "43.2216090",
    "current_lng": "6.6619680",
    "proposed_lat": 43.221609,
    "proposed_lng": 6.661968,
    "query": "La Reserve a la Plage, La Reserve Ramatuelle, Pampelonne Beach, Ramatuelle, Provence-Alpes-Cote d'Azur, France",
    "formatted_address": "Chem. de l'EPI, 83350 Ramatuelle, France",
    "location_type": "GEOMETRIC_CENTER",
    "place_id": "ChIJVTMvQUDHzhIRMDVogsUJkKI"
  },
  {
    "id": 375,
    "restaurant_name": "La Voile",
    "city": "Ramatuelle",
    "slug": "la-voile",
    "status": "updated",
    "current_lat": "43.1924200",
    "current_lng": "6.6482340",
    "proposed_lat": 43.19242,
    "proposed_lng": 6.648234,
    "query": "La Voile, La Reserve Ramatuelle, Chemin des Cretes, Ramatuelle, Provence-Alpes-Cote d'Azur, France",
    "formatted_address": "736 Chem. des Cretes, 83350 Ramatuelle, France",
    "location_type": "ROOFTOP",
    "place_id": "ChIJCx7O9xbEzhIREq1wEeTuTaQ"
  },
  {
    "id": 398,
    "restaurant_name": "Les Palmiers",
    "city": "Ramatuelle",
    "slug": "les-palmiers",
    "status": "updated",
    "current_lat": "43.2387460",
    "current_lng": "6.6626700",
    "proposed_lat": 43.238746,
    "proposed_lng": 6.66267,
    "query": "Les Palmiers, Pampelonne Beach, Ramatuelle, Provence-Alpes-Cote d'Azur, France",
    "formatted_address": "962 Chem. des Tamaris, 83350 Ramatuelle, France",
    "location_type": "ROOFTOP",
    "place_id": "ChIJf0tY4a_GzhIRTwrHRXY5XAI"
  },
  {
    "id": 395,
    "restaurant_name": "LouLou Ramatuelle",
    "city": "Ramatuelle",
    "slug": "loulou-ramatuelle",
    "status": "updated",
    "current_lat": "43.2394800",
    "current_lng": "6.6626810",
    "proposed_lat": 43.23948,
    "proposed_lng": 6.662681,
    "query": "LouLou Ramatuelle, Pampelonne Beach, Ramatuelle, Provence-Alpes-Cote d'Azur, France",
    "formatted_address": "Plage de Pampelonne, 1080 Chem. des Tamaris, 83350 Ramatuelle, France",
    "location_type": "ROOFTOP",
    "place_id": "ChIJy0WPK13HzhIR8IRQcOU8Pj4"
  },
  {
    "id": 397,
    "restaurant_name": "Nikki Beach Saint Tropez",
    "city": "Ramatuelle",
    "slug": "nikki-beach-saint-tropez",
    "status": "updated",
    "current_lat": "43.2208140",
    "current_lng": "6.6600510",
    "proposed_lat": 43.220814,
    "proposed_lng": 6.660051,
    "query": "Nikki Beach Saint Tropez, Pampelonne Beach, Ramatuelle, Provence-Alpes-Cote d'Azur, France",
    "formatted_address": "1093 Chem. de l'EPI, 83350 Ramatuelle, France",
    "location_type": "ROOFTOP",
    "place_id": "ChIJf0tY4a_GzhIRmRk8kFCasMw"
  },
  {
    "id": 392,
    "restaurant_name": "Shellona",
    "city": "Ramatuelle",
    "slug": "shellona",
    "status": "updated",
    "current_lat": "43.2381790",
    "current_lng": "6.6627560",
    "proposed_lat": 43.238179,
    "proposed_lng": 6.662756,
    "query": "Shellona, Pampelonne Beach, Ramatuelle, Provence-Alpes-Cote d'Azur, France",
    "formatted_address": "1010 Chem. des Tamaris, 83350 Ramatuelle, France",
    "location_type": "ROOFTOP",
    "place_id": "ChIJc3kfmazGzhIR7-RWd6HtgxU"
  },
  {
    "id": 396,
    "restaurant_name": "Verde Beach",
    "city": "Ramatuelle",
    "slug": "verde-beach",
    "status": "updated",
    "current_lat": "43.2211200",
    "current_lng": "6.6620010",
    "proposed_lat": 43.22112,
    "proposed_lng": 6.662001,
    "query": "Verde Beach, Pampelonne Beach, Ramatuelle, Provence-Alpes-Cote d'Azur, France",
    "formatted_address": "Chem. de l'EPI, 83350 Ramatuelle, France",
    "location_type": "GEOMETRIC_CENTER",
    "place_id": "ChIJn5Gf4OnHzhIRq7Z233hmSIU"
  }
]